city,long,lat,population
New York,-74.006,40.7128,8400000
Los Angeles,-118.2437,34.0522,3900000
Chicago,-87.6298,41.8781,2700000
Houston,-95.3698,29.7604,2300000
Phoenix,-112.074,33.4484,1600000
Seattle,-122.3321,47.6062,750000
Miami,-80.1918,25.7617,470000
Denver,-104.9903,39.7392,715000
